{
  "count": 171,
  "lastScrapedAt": "2026-05-02T18:35:44.840Z",
  "data": [
    {
      "id": "28eb735ef996",
      "name": "Golf Noranda",
      "openingDate": "À déterminer",
      "region": "Abitibi-Témiscamingue",
      "coordinates": {
        "lat": 48.7519,
        "lng": -80.7837
      },
      "url": null,
      "scrapedAt": "2026-05-02T18:35:44.840Z"
    },
    {
      "id": "1399434de7cc",
      "name": "Golf Cacouna",
      "openingDate": "À déterminer",
      "region": "Bas-Saint-Laurent",
      "coordinates": {
        "lat": 48.5333,
        "lng": -69.0833
      },
      "url": null,
      "scrapedAt": "2026-05-02T18:35:44.840Z"
    },
    {
      "id": "5fe978a3465a",
      "name": "Golf les Saules",
      "openingDate": "À déterminer",
      "region": "Bas-Saint-Laurent",
      "coordinates": {
        "lat": 48.5333,
        "lng": -69.0833
      },
      "url": null,
      "scrapedAt": "2026-05-02T18:35:44.841Z"
    },
    {
      "id": "c35508393ea8",
      "name": "Golf Rivière-du-Loup",
      "openingDate": "À déterminer",
      "region": "Bas-Saint-Laurent",
      "coordinates": {
        "lat": 48.5333,
        "lng": -69.0833
      },
      "url": null,
      "scrapedAt": "2026-05-02T18:35:44.841Z"
    },
    {
      "id": "4c1737f20779",
      "name": "Golf Vallée de Témiscouata",
      "openingDate": "À déterminer",
      "region": "Bas-Saint-Laurent",
      "coordinates": {
        "lat": 48.5333,
        "lng": -69.0833
      },
      "url": null,
      "scrapedAt": "2026-05-02T18:35:44.842Z"
    },
    {
      "id": "1e08797598ba",
      "name": "Golf Château Bromont",
      "openingDate": "À déterminer",
      "region": "Cantons-de-l’Est",
      "coordinates": {
        "lat": 46.8139,
        "lng": -71.208
      },
      "url": null,
      "scrapedAt": "2026-05-02T18:35:44.843Z"
    },
    {
      "id": "85eaae6acef4",
      "name": "Golf Dufferin Heights",
      "openingDate": "À déterminer",
      "region": "Cantons-de-l’Est",
      "coordinates": {
        "lat": 46.8139,
        "lng": -71.208
      },
      "url": null,
      "scrapedAt": "2026-05-02T18:35:44.844Z"
    },
    {
      "id": "8ad2f72f9975",
      "name": "Golf Mégantic",
      "openingDate": "À déterminer",
      "region": "Cantons-de-l’Est",
      "coordinates": {
        "lat": 46.8139,
        "lng": -71.208
      },
      "url": null,
      "scrapedAt": "2026-05-02T18:35:44.845Z"
    },
    {
      "id": "04e43fa5b0d9",
      "name": "Golf Mont Orford",
      "openingDate": "À déterminer",
      "region": "Cantons-de-l’Est",
      "coordinates": {
        "lat": 46.8139,
        "lng": -71.208
      },
      "url": null,
      "scrapedAt": "2026-05-02T18:35:44.846Z"
    },
    {
      "id": "2609bf0c457c",
      "name": "Golf  Parcours Vieux Village de Bromont",
      "openingDate": "À déterminer",
      "region": "Cantons-de-l’Est",
      "coordinates": {
        "lat": 46.8139,
        "lng": -71.208
      },
      "url": null,
      "scrapedAt": "2026-05-02T18:35:44.846Z"
    },
    {
      "id": "4d49a863d243",
      "name": "Golf 9Chatel",
      "openingDate": "À déterminer",
      "region": "Capitale-Nationale",
      "coordinates": {
        "lat": 46.8139,
        "lng": -71.208
      },
      "url": null,
      "scrapedAt": "2026-05-02T18:35:44.849Z"
    },
    {
      "id": "d135359894c5",
      "name": "Golf Alpin",
      "openingDate": "À déterminer",
      "region": "Capitale-Nationale",
      "coordinates": {
        "lat": 46.8139,
        "lng": -71.208
      },
      "url": null,
      "scrapedAt": "2026-05-02T18:35:44.849Z"
    },
    {
      "id": "77516d4ffaaa",
      "name": "Golf de la Faune",
      "openingDate": "À déterminer",
      "region": "Capitale-Nationale",
      "coordinates": {
        "lat": 46.8139,
        "lng": -71.208
      },
      "url": null,
      "scrapedAt": "2026-05-02T18:35:44.850Z"
    },
    {
      "id": "2c4bc16a1b7e",
      "name": "Golf des Pins",
      "openingDate": "À déterminer",
      "region": "Capitale-Nationale",
      "coordinates": {
        "lat": 46.8139,
        "lng": -71.208
      },
      "url": null,
      "scrapedAt": "2026-05-02T18:35:44.850Z"
    },
    {
      "id": "3acfc22f03f0",
      "name": "Golf Grand Portneuf",
      "openingDate": "À déterminer",
      "region": "Capitale-Nationale",
      "coordinates": {
        "lat": 46.8139,
        "lng": -71.208
      },
      "url": null,
      "scrapedAt": "2026-05-02T18:35:44.850Z"
    },
    {
      "id": "d380b99025f5",
      "name": "Golf Grand Vallon",
      "openingDate": "À déterminer",
      "region": "Capitale-Nationale",
      "coordinates": {
        "lat": 46.8139,
        "lng": -71.208
      },
      "url": null,
      "scrapedAt": "2026-05-02T18:35:44.850Z"
    },
    {
      "id": "7c6f35f68364",
      "name": "Golf Lac St-Joseph",
      "openingDate": "À déterminer",
      "region": "Capitale-Nationale",
      "coordinates": {
        "lat": 46.8139,
        "lng": -71.208
      },
      "url": null,
      "scrapedAt": "2026-05-02T18:35:44.851Z"
    },
    {
      "id": "565b63b04842",
      "name": "Golf Lorette",
      "openingDate": "À déterminer",
      "region": "Capitale-Nationale",
      "coordinates": {
        "lat": 46.8139,
        "lng": -71.208
      },
      "url": null,
      "scrapedAt": "2026-05-02T18:35:44.851Z"
    },
    {
      "id": "a1d80108c2ec",
      "name": "Golf Le Montmorency",
      "openingDate": "À déterminer",
      "region": "Capitale-Nationale",
      "coordinates": {
        "lat": 46.8139,
        "lng": -71.208
      },
      "url": null,
      "scrapedAt": "2026-05-02T18:35:44.851Z"
    },
    {
      "id": "ec9fafe47b62",
      "name": "Golf Mont Tourbillon",
      "openingDate": "À déterminer",
      "region": "Capitale-Nationale",
      "coordinates": {
        "lat": 46.8139,
        "lng": -71.208
      },
      "url": null,
      "scrapedAt": "2026-05-02T18:35:44.852Z"
    },
    {
      "id": "8b981017509a",
      "name": "Golf Orléans",
      "openingDate": "À déterminer",
      "region": "Capitale-Nationale",
      "coordinates": {
        "lat": 46.8139,
        "lng": -71.208
      },
      "url": null,
      "scrapedAt": "2026-05-02T18:35:44.852Z"
    },
    {
      "id": "68bc0a0dedad",
      "name": "Golf Stoneham",
      "openingDate": "À déterminer",
      "region": "Capitale-Nationale",
      "coordinates": {
        "lat": 46.8139,
        "lng": -71.208
      },
      "url": null,
      "scrapedAt": "2026-05-02T18:35:44.852Z"
    },
    {
      "id": "4a2b588fc51d",
      "name": "Golf Canton",
      "openingDate": "À déterminer",
      "region": "Centre-du-Québec",
      "coordinates": {
        "lat": 46.2333,
        "lng": -72.6167
      },
      "url": null,
      "scrapedAt": "2026-05-02T18:35:44.853Z"
    },
    {
      "id": "260e29adf454",
      "name": "Golf Drummondville",
      "openingDate": "À déterminer",
      "region": "Centre-du-Québec",
      "coordinates": {
        "lat": 46.2333,
        "lng": -72.6167
      },
      "url": null,
      "scrapedAt": "2026-05-02T18:35:44.853Z"
    },
    {
      "id": "7933938eb51d",
      "name": "Golf Gentilly",
      "openingDate": "À déterminer",
      "region": "Centre-du-Québec",
      "coordinates": {
        "lat": 46.2333,
        "lng": -72.6167
      },
      "url": null,
      "scrapedAt": "2026-05-02T18:35:44.853Z"
    },
    {
      "id": "7071c6d8d3a0",
      "name": "Golf Godefroy",
      "openingDate": "À déterminer",
      "region": "Centre-du-Québec",
      "coordinates": {
        "lat": 46.2333,
        "lng": -72.6167
      },
      "url": null,
      "scrapedAt": "2026-05-02T18:35:44.854Z"
    },
    {
      "id": "a6ab5925bc84",
      "name": "Golf Monty",
      "openingDate": "À déterminer",
      "region": "Centre-du-Québec",
      "coordinates": {
        "lat": 46.2333,
        "lng": -72.6167
      },
      "url": null,
      "scrapedAt": "2026-05-02T18:35:44.854Z"
    },
    {
      "id": "50e471b1a690",
      "name": "Baie St-Paul",
      "openingDate": "À déterminer",
      "region": "Charlevoix",
      "coordinates": {
        "lat": 46.8139,
        "lng": -71.208
      },
      "url": null,
      "scrapedAt": "2026-05-02T18:35:44.855Z"
    },
    {
      "id": "022d3e031372",
      "name": "Golf Ste-Marie",
      "openingDate": "À déterminer",
      "region": "Chaudière-Appalaches",
      "coordinates": {
        "lat": 46.4833,
        "lng": -70.9167
      },
      "url": null,
      "scrapedAt": "2026-05-02T18:35:44.858Z"
    },
    {
      "id": "8aeb09a28c64",
      "name": "Golf Sainte-Marguerite",
      "openingDate": "À déterminer",
      "region": "Côte-Nord",
      "coordinates": {
        "lat": 49.2727,
        "lng": -67.1333
      },
      "url": null,
      "scrapedAt": "2026-05-02T18:35:44.859Z"
    },
    {
      "id": "342685e5a2c0",
      "name": "Golf Tadoussac",
      "openingDate": "À déterminer",
      "region": "Côte-Nord",
      "coordinates": {
        "lat": 49.2727,
        "lng": -67.1333
      },
      "url": null,
      "scrapedAt": "2026-05-02T18:35:44.859Z"
    },
    {
      "id": "5852468bb6b9",
      "name": "Golf Carleton-sur-Mer",
      "openingDate": "À déterminer",
      "region": "Gaspésie",
      "coordinates": {
        "lat": 49.0104,
        "lng": -66.6017
      },
      "url": null,
      "scrapedAt": "2026-05-02T18:35:44.859Z"
    },
    {
      "id": "f737b29bf962",
      "name": "Golf Berthier",
      "openingDate": "À déterminer",
      "region": "Lanaudière",
      "coordinates": {
        "lat": 46.2333,
        "lng": -73.2167
      },
      "url": null,
      "scrapedAt": "2026-05-02T18:35:44.860Z"
    },
    {
      "id": "7e9b11fe8561",
      "name": "Golf Montcalm",
      "openingDate": "À déterminer",
      "region": "Lanaudière",
      "coordinates": {
        "lat": 46.2333,
        "lng": -73.2167
      },
      "url": null,
      "scrapedAt": "2026-05-02T18:35:44.861Z"
    },
    {
      "id": "fbf8e1cf0c70",
      "name": "Golf Le Champêtre",
      "openingDate": "À déterminer",
      "region": "Laurentides",
      "coordinates": {
        "lat": 46.0088,
        "lng": -74.9847
      },
      "url": null,
      "scrapedAt": "2026-05-02T18:35:44.883Z"
    },
    {
      "id": "13335a3ef605",
      "name": "Golf Les Ruisseaux",
      "openingDate": "À déterminer",
      "region": "Laurentides",
      "coordinates": {
        "lat": 46.0088,
        "lng": -74.9847
      },
      "url": null,
      "scrapedAt": "2026-05-02T18:35:44.884Z"
    },
    {
      "id": "3b8c1e56a13b",
      "name": "Golf Manitou",
      "openingDate": "À déterminer",
      "region": "Laurentides",
      "coordinates": {
        "lat": 46.0088,
        "lng": -74.9847
      },
      "url": null,
      "scrapedAt": "2026-05-02T18:35:44.885Z"
    },
    {
      "id": "ffd609bbb90c",
      "name": "Golf Piedmont",
      "openingDate": "À déterminer",
      "region": "Laurentides",
      "coordinates": {
        "lat": 46.0088,
        "lng": -74.9847
      },
      "url": null,
      "scrapedAt": "2026-05-02T18:35:44.886Z"
    },
    {
      "id": "0a86c357be24",
      "name": "Golf Royal Laurentien",
      "openingDate": "À déterminer",
      "region": "Laurentides",
      "coordinates": {
        "lat": 46.0088,
        "lng": -74.9847
      },
      "url": null,
      "scrapedAt": "2026-05-02T18:35:44.886Z"
    },
    {
      "id": "99a6f6feefd2",
      "name": "Golf St-Janvier",
      "openingDate": "À déterminer",
      "region": "Laurentides",
      "coordinates": {
        "lat": 46.0088,
        "lng": -74.9847
      },
      "url": null,
      "scrapedAt": "2026-05-02T18:35:44.886Z"
    },
    {
      "id": "a30b1061f463",
      "name": "Golf St-Jérôme",
      "openingDate": "À déterminer",
      "region": "Laurentides",
      "coordinates": {
        "lat": 46.0088,
        "lng": -74.9847
      },
      "url": null,
      "scrapedAt": "2026-05-02T18:35:44.886Z"
    },
    {
      "id": "0130c6ec2f0a",
      "name": "Golf Val-Morin",
      "openingDate": "À déterminer",
      "region": "Laurentides",
      "coordinates": {
        "lat": 46.0088,
        "lng": -74.9847
      },
      "url": null,
      "scrapedAt": "2026-05-02T18:35:44.887Z"
    },
    {
      "id": "edab716047c7",
      "name": "Golf Vallée de la Lièvre",
      "openingDate": "À déterminer",
      "region": "Laurentides",
      "coordinates": {
        "lat": 46.0088,
        "lng": -74.9847
      },
      "url": null,
      "scrapedAt": "2026-05-02T18:35:44.887Z"
    },
    {
      "id": "33ab6fd44a61",
      "name": "Golf St-François",
      "openingDate": "À déterminer",
      "region": "Laval",
      "coordinates": {
        "lat": 45.5695,
        "lng": -73.7392
      },
      "url": null,
      "scrapedAt": "2026-05-02T18:35:44.887Z"
    },
    {
      "id": "a25fb50b3b86",
      "name": "Golf Du Moulin",
      "openingDate": "À déterminer",
      "region": "Mauricie",
      "coordinates": {
        "lat": 46.3639,
        "lng": -72.5449
      },
      "url": null,
      "scrapedAt": "2026-05-02T18:35:44.889Z"
    },
    {
      "id": "aa21bffb91c5",
      "name": "Golf Grand-Mère",
      "openingDate": "À déterminer",
      "region": "Mauricie",
      "coordinates": {
        "lat": 46.3639,
        "lng": -72.5449
      },
      "url": null,
      "scrapedAt": "2026-05-02T18:35:44.889Z"
    },
    {
      "id": "cfc8e3ad8a26",
      "name": "Golf Ki-8-Eb",
      "openingDate": "À déterminer",
      "region": "Mauricie",
      "coordinates": {
        "lat": 46.3639,
        "lng": -72.5449
      },
      "url": null,
      "scrapedAt": "2026-05-02T18:35:44.889Z"
    },
    {
      "id": "17d6addf5bef",
      "name": "Golf La Tuque",
      "openingDate": "À déterminer",
      "region": "Mauricie",
      "coordinates": {
        "lat": 46.3639,
        "lng": -72.5449
      },
      "url": null,
      "scrapedAt": "2026-05-02T18:35:44.889Z"
    },
    {
      "id": "b8a8e45a0d62",
      "name": "Golf Ste-Flore",
      "openingDate": "À déterminer",
      "region": "Mauricie",
      "coordinates": {
        "lat": 46.3639,
        "lng": -72.5449
      },
      "url": null,
      "scrapedAt": "2026-05-02T18:35:44.890Z"
    },
    {
      "id": "9f717b303a8b",
      "name": "Golf Domaine de Rouville",
      "openingDate": "À déterminer",
      "region": "Montérégie",
      "coordinates": {
        "lat": 45.5333,
        "lng": -73.5167
      },
      "url": null,
      "scrapedAt": "2026-05-02T18:35:44.892Z"
    },
    {
      "id": "35a227f65646",
      "name": "Golf du parc Kingsway",
      "openingDate": "À déterminer",
      "region": "Outaouais",
      "coordinates": {
        "lat": 45.4215,
        "lng": -75.6972
      },
      "url": null,
      "scrapedAt": "2026-05-02T18:35:44.906Z"
    },
    {
      "id": "056285046294",
      "name": "Golf Fairmont Le Château Montebello",
      "openingDate": "À déterminer",
      "region": "Outaouais",
      "coordinates": {
        "lat": 45.4215,
        "lng": -75.6972
      },
      "url": null,
      "scrapedAt": "2026-05-02T18:35:44.906Z"
    },
    {
      "id": "65d466bd7b03",
      "name": "Golf Gatineau",
      "openingDate": "À déterminer",
      "region": "Outaouais",
      "coordinates": {
        "lat": 45.4215,
        "lng": -75.6972
      },
      "url": null,
      "scrapedAt": "2026-05-02T18:35:44.907Z"
    },
    {
      "id": "133e0615fd00",
      "name": "Golf Lac Simon / Montpellier",
      "openingDate": "À déterminer",
      "region": "Outaouais",
      "coordinates": {
        "lat": 45.4215,
        "lng": -75.6972
      },
      "url": null,
      "scrapedAt": "2026-05-02T18:35:44.907Z"
    },
    {
      "id": "42a3784d59b5",
      "name": "Golf et tennis Larrimac",
      "openingDate": "À déterminer",
      "region": "Outaouais",
      "coordinates": {
        "lat": 45.4215,
        "lng": -75.6972
      },
      "url": null,
      "scrapedAt": "2026-05-02T18:35:44.907Z"
    },
    {
      "id": "a0be7b4e8266",
      "name": "Golf Tecumseh",
      "openingDate": "À déterminer",
      "region": "Outaouais",
      "coordinates": {
        "lat": 45.4215,
        "lng": -75.6972
      },
      "url": null,
      "scrapedAt": "2026-05-02T18:35:44.908Z"
    },
    {
      "id": "c4d49a8b0905",
      "name": "Golf Touraine",
      "openingDate": "À déterminer",
      "region": "Outaouais",
      "coordinates": {
        "lat": 45.4215,
        "lng": -75.6972
      },
      "url": null,
      "scrapedAt": "2026-05-02T18:35:44.908Z"
    },
    {
      "id": "5d2e0395e4d4",
      "name": "Golf Saguenay Arvida",
      "openingDate": "À déterminer",
      "region": "Saguenay – Lac-St-Jean",
      "coordinates": {
        "lat": 46.8139,
        "lng": -71.208
      },
      "url": null,
      "scrapedAt": "2026-05-02T18:35:44.909Z"
    },
    {
      "id": "20d5a282c56d",
      "name": "Golf Dolbeau-Mistassini",
      "openingDate": "À déterminer",
      "region": "Saguenay – Lac-St-Jean",
      "coordinates": {
        "lat": 46.8139,
        "lng": -71.208
      },
      "url": null,
      "scrapedAt": "2026-05-02T18:35:44.909Z"
    },
    {
      "id": "0f0a76fc57e4",
      "name": "Golf Lac St-Jean",
      "openingDate": "À déterminer",
      "region": "Saguenay – Lac-St-Jean",
      "coordinates": {
        "lat": 46.8139,
        "lng": -71.208
      },
      "url": null,
      "scrapedAt": "2026-05-02T18:35:44.909Z"
    },
    {
      "id": "f56c6b16cadd",
      "name": "Golf Le Ricochet",
      "openingDate": "À déterminer",
      "region": "Saguenay – Lac-St-Jean",
      "coordinates": {
        "lat": 46.8139,
        "lng": -71.208
      },
      "url": null,
      "scrapedAt": "2026-05-02T18:35:44.909Z"
    },
    {
      "id": "5a360507b0e3",
      "name": "Golf St-Prime sur le Lac (GSP)",
      "openingDate": "À déterminer",
      "region": "Saguenay – Lac-St-Jean",
      "coordinates": {
        "lat": 46.8139,
        "lng": -71.208
      },
      "url": null,
      "scrapedAt": "2026-05-02T18:35:44.910Z"
    },
    {
      "id": "39a91406d620",
      "name": "Rockland",
      "openingDate": "À déterminer",
      "region": "Ontario-Est",
      "coordinates": {
        "lat": 46.8139,
        "lng": -71.208
      },
      "url": null,
      "scrapedAt": "2026-05-02T18:35:44.912Z"
    },
    {
      "id": "fa20750a19e7",
      "name": "Fraser Edmundston Golf Club",
      "openingDate": "À déterminer",
      "region": "Nouveau-Brunswick",
      "coordinates": {
        "lat": 46.8139,
        "lng": -71.208
      },
      "url": null,
      "scrapedAt": "2026-05-02T18:35:44.914Z"
    },
    {
      "id": "5050672b2d22",
      "name": "Golf UFO",
      "openingDate": "8 mars",
      "region": "Laval",
      "coordinates": {
        "lat": 45.5695,
        "lng": -73.7392
      },
      "url": null,
      "scrapedAt": "2026-05-02T18:35:44.888Z"
    },
    {
      "id": "6f7780543436",
      "name": "Golf L’Express",
      "openingDate": "8 mars",
      "region": "Montérégie",
      "coordinates": {
        "lat": 45.3883971,
        "lng": -73.4283879
      },
      "url": null,
      "scrapedAt": "2026-05-02T18:35:44.896Z"
    },
    {
      "id": "faa0ff809bb1",
      "name": "Golf Les Cèdres",
      "openingDate": "9 mars",
      "region": "Montérégie",
      "coordinates": {
        "lat": 45.3488734,
        "lng": -74.027144
      },
      "url": null,
      "scrapedAt": "2026-05-02T18:35:44.898Z"
    },
    {
      "id": "18321bd2933c",
      "name": "Golf Ste-Rose",
      "openingDate": "28 mars",
      "region": "Laval",
      "coordinates": {
        "lat": 45.5943897,
        "lng": -73.8208021
      },
      "url": null,
      "scrapedAt": "2026-05-02T18:35:44.888Z"
    },
    {
      "id": "9d3b68761a55",
      "name": "Golf des Écossais",
      "openingDate": "30 mars",
      "region": "Cantons-de-l’Est",
      "coordinates": {
        "lat": 46.8139,
        "lng": -71.208
      },
      "url": null,
      "scrapedAt": "2026-05-02T18:35:44.844Z"
    },
    {
      "id": "e689cb04da39",
      "name": "Golf Les Rivières",
      "openingDate": "30 mars",
      "region": "Mauricie",
      "coordinates": {
        "lat": 46.3699483,
        "lng": -72.6011721
      },
      "url": null,
      "scrapedAt": "2026-05-02T18:35:44.890Z"
    },
    {
      "id": "f9d22981725d",
      "name": "Golf Le Versant",
      "openingDate": "2 avril",
      "region": "Lanaudière",
      "coordinates": {
        "lat": 45.687291,
        "lng": -73.7028251
      },
      "url": null,
      "scrapedAt": "2026-05-02T18:35:44.881Z"
    },
    {
      "id": "d637f0338753",
      "name": "Golf Verchères",
      "openingDate": "2 avril",
      "region": "Montérégie",
      "coordinates": {
        "lat": 45.7152665,
        "lng": -73.3158845
      },
      "url": null,
      "scrapedAt": "2026-05-02T18:35:44.904Z"
    },
    {
      "id": "3a3523e2bedb",
      "name": "Golf Granby St-Paul",
      "openingDate": "3 avril",
      "region": "Montérégie",
      "coordinates": {
        "lat": 45.5333,
        "lng": -73.5167
      },
      "url": null,
      "scrapedAt": "2026-05-02T18:35:44.893Z"
    },
    {
      "id": "2cd1ad7b587c",
      "name": "Golf L’Émeraude",
      "openingDate": "4 avril",
      "region": "Centre-du-Québec",
      "coordinates": {
        "lat": 45.9332209,
        "lng": -72.6093734
      },
      "url": null,
      "scrapedAt": "2026-05-02T18:35:44.853Z"
    },
    {
      "id": "1967a153383c",
      "name": "Golf International 2000",
      "openingDate": "6 avril",
      "region": "Montérégie",
      "coordinates": {
        "lat": 45.0122284,
        "lng": -73.421323
      },
      "url": null,
      "scrapedAt": "2026-05-02T18:35:44.893Z"
    },
    {
      "id": "d7fe898f96bb",
      "name": "Golf Vaudreuil",
      "openingDate": "6 avril",
      "region": "Montérégie",
      "coordinates": {
        "lat": 45.3488734,
        "lng": -74.027144
      },
      "url": null,
      "scrapedAt": "2026-05-02T18:35:44.904Z"
    },
    {
      "id": "1278bcd5faff",
      "name": "Golf Lac Poulin",
      "openingDate": "9 avril",
      "region": "Chaudière-Appalaches",
      "coordinates": {
        "lat": 46.4833,
        "lng": -70.9167
      },
      "url": null,
      "scrapedAt": "2026-05-02T18:35:44.857Z"
    },
    {
      "id": "10f928056a3b",
      "name": "Golf Lévis",
      "openingDate": "9 avril",
      "region": "Chaudière-Appalaches",
      "coordinates": {
        "lat": 46.8000811,
        "lng": -71.1648036
      },
      "url": null,
      "scrapedAt": "2026-05-02T18:35:44.857Z"
    },
    {
      "id": "d7f7b6cd3581",
      "name": "Golf Val-des-Arbres",
      "openingDate": "9 avril",
      "region": "Laval",
      "coordinates": {
        "lat": 45.5695,
        "lng": -73.7392
      },
      "url": null,
      "scrapedAt": "2026-05-02T18:35:44.888Z"
    },
    {
      "id": "c4a0cd10ce2c",
      "name": "Golf Marthelinois",
      "openingDate": "9 avril",
      "region": "Mauricie",
      "coordinates": {
        "lat": 46.384517,
        "lng": -72.5069259
      },
      "url": null,
      "scrapedAt": "2026-05-02T18:35:44.890Z"
    },
    {
      "id": "8e4ea0e54762",
      "name": "Emerald Links Golf & Country Club",
      "openingDate": "9 avril",
      "region": "Ontario-Est",
      "coordinates": {
        "lat": 46.8139,
        "lng": -71.208
      },
      "url": null,
      "scrapedAt": "2026-05-02T18:35:44.911Z"
    },
    {
      "id": "fc0b94f3db05",
      "name": "Golf Laurier",
      "openingDate": "10 avril",
      "region": "Centre-du-Québec",
      "coordinates": {
        "lat": 46.106903,
        "lng": -71.8978071
      },
      "url": null,
      "scrapedAt": "2026-05-02T18:35:44.854Z"
    },
    {
      "id": "03363f44564c",
      "name": "Golf Le Drummond",
      "openingDate": "10 avril",
      "region": "Centre-du-Québec",
      "coordinates": {
        "lat": 45.9558765,
        "lng": -72.6069062
      },
      "url": null,
      "scrapedAt": "2026-05-02T18:35:44.854Z"
    },
    {
      "id": "1da8833b2a9c",
      "name": "Golf Lanaudière",
      "openingDate": "10 avril",
      "region": "Lanaudière",
      "coordinates": {
        "lat": 45.8020698,
        "lng": -73.4630824
      },
      "url": null,
      "scrapedAt": "2026-05-02T18:35:44.860Z"
    },
    {
      "id": "00b5c0656afc",
      "name": "Golf Les Quatre Domaines (4D)",
      "openingDate": "10 avril",
      "region": "Laurentides",
      "coordinates": {
        "lat": 46.0088,
        "lng": -74.9847
      },
      "url": null,
      "scrapedAt": "2026-05-02T18:35:44.884Z"
    },
    {
      "id": "10e1d62eacb0",
      "name": "Golf La Seigneurie",
      "openingDate": "10 avril",
      "region": "Montérégie",
      "coordinates": {
        "lat": 45.5895315,
        "lng": -73.1753065
      },
      "url": null,
      "scrapedAt": "2026-05-02T18:35:44.896Z"
    },
    {
      "id": "7d825116eb2e",
      "name": "Golf Rive-Sud",
      "openingDate": "10 avril",
      "region": "Montérégie",
      "coordinates": {
        "lat": 45.5050361,
        "lng": -73.3041315
      },
      "url": null,
      "scrapedAt": "2026-05-02T18:35:44.900Z"
    },
    {
      "id": "9d67aa463e61",
      "name": "Golf Valleyfield",
      "openingDate": "10 avril",
      "region": "Montérégie",
      "coordinates": {
        "lat": 45.2896217,
        "lng": -74.1047463
      },
      "url": null,
      "scrapedAt": "2026-05-02T18:35:44.903Z"
    },
    {
      "id": "c805341f40e0",
      "name": "Golf Plessisville",
      "openingDate": "11 avril",
      "region": "Centre-du-Québec",
      "coordinates": {
        "lat": 46.2632294,
        "lng": -71.7264147
      },
      "url": null,
      "scrapedAt": "2026-05-02T18:35:44.855Z"
    },
    {
      "id": "14b060bb8a39",
      "name": "Golf Le Portage",
      "openingDate": "11 avril",
      "region": "Lanaudière",
      "coordinates": {
        "lat": 45.8347801,
        "lng": -73.4384878
      },
      "url": null,
      "scrapedAt": "2026-05-02T18:35:44.880Z"
    },
    {
      "id": "4b71505207df",
      "name": "Golf Le Select",
      "openingDate": "11 avril",
      "region": "Laurentides",
      "coordinates": {
        "lat": 45.6711078,
        "lng": -74.2304851
      },
      "url": null,
      "scrapedAt": "2026-05-02T18:35:44.885Z"
    },
    {
      "id": "a196476fcf31",
      "name": "Iroquois Golf Club",
      "openingDate": "11 avril",
      "region": "Ontario-Est",
      "coordinates": {
        "lat": 46.8139,
        "lng": -71.208
      },
      "url": null,
      "scrapedAt": "2026-05-02T18:35:44.911Z"
    },
    {
      "id": "edf9ce0f9320",
      "name": "Golf de Coaticook",
      "openingDate": "12 avril",
      "region": "Cantons-de-l’Est",
      "coordinates": {
        "lat": 46.8139,
        "lng": -71.208
      },
      "url": null,
      "scrapedAt": "2026-05-02T18:35:44.843Z"
    },
    {
      "id": "101fa27bc448",
      "name": "Golf Longchamp",
      "openingDate": "12 avril",
      "region": "Cantons-de-l’Est",
      "coordinates": {
        "lat": 46.8139,
        "lng": -71.208
      },
      "url": null,
      "scrapedAt": "2026-05-02T18:35:44.847Z"
    },
    {
      "id": "938d94a4a294",
      "name": "Golf Victoriaville",
      "openingDate": "13 avril",
      "region": "Centre-du-Québec",
      "coordinates": {
        "lat": 46.0455713,
        "lng": -71.9442827
      },
      "url": null,
      "scrapedAt": "2026-05-02T18:35:44.855Z"
    },
    {
      "id": "29a7069c0f8e",
      "name": "Golf Cardinal",
      "openingDate": "13 avril",
      "region": "Laval",
      "coordinates": {
        "lat": 45.5354352,
        "lng": -73.8484755
      },
      "url": null,
      "scrapedAt": "2026-05-02T18:35:44.887Z"
    },
    {
      "id": "d7cbd22a2e7d",
      "name": "Golf Acton Vale",
      "openingDate": "13 avril",
      "region": "Montérégie",
      "coordinates": {
        "lat": 45.6586634,
        "lng": -72.5622497
      },
      "url": null,
      "scrapedAt": "2026-05-02T18:35:44.891Z"
    },
    {
      "id": "3643db784975",
      "name": "Golf Métropolitain d’Anjou",
      "openingDate": "14 avril",
      "region": "Montréal",
      "coordinates": {
        "lat": 45.62062,
        "lng": -73.554641
      },
      "url": null,
      "scrapedAt": "2026-05-02T18:35:44.905Z"
    },
    {
      "id": "d3b261315187",
      "name": "Golf Belle Vue",
      "openingDate": "15 avril",
      "region": "Montérégie",
      "coordinates": {
        "lat": 45.3453505,
        "lng": -73.7913039
      },
      "url": null,
      "scrapedAt": "2026-05-02T18:35:44.891Z"
    },
    {
      "id": "21c48636d970",
      "name": "Golf Continental",
      "openingDate": "15 avril",
      "region": "Montérégie",
      "coordinates": {
        "lat": 45.9823411,
        "lng": -73.1276245
      },
      "url": null,
      "scrapedAt": "2026-05-02T18:35:44.892Z"
    },
    {
      "id": "36e7db386833",
      "name": "Golf Les Dunes",
      "openingDate": "15 avril",
      "region": "Montérégie",
      "coordinates": {
        "lat": 45.9955082,
        "lng": -73.1533859
      },
      "url": null,
      "scrapedAt": "2026-05-02T18:35:44.898Z"
    },
    {
      "id": "0312b6ff8944",
      "name": "Golf Rivière-Beaudette",
      "openingDate": "15 avril",
      "region": "Montérégie",
      "coordinates": {
        "lat": 45.2285187,
        "lng": -74.3421906
      },
      "url": null,
      "scrapedAt": "2026-05-02T18:35:44.900Z"
    },
    {
      "id": "d52d5562ae76",
      "name": "Golf St-Zotique",
      "openingDate": "15 avril",
      "region": "Montérégie",
      "coordinates": {
        "lat": 45.241805,
        "lng": -74.2613759
      },
      "url": null,
      "scrapedAt": "2026-05-02T18:35:44.903Z"
    },
    {
      "id": "e96b74e5fa05",
      "name": "Golf Triangle d’Or",
      "openingDate": "15 avril",
      "region": "Montérégie",
      "coordinates": {
        "lat": 45.5333,
        "lng": -73.5167
      },
      "url": null,
      "scrapedAt": "2026-05-02T18:35:44.903Z"
    },
    {
      "id": "2b908553e5ad",
      "name": "Golf Vallée des Forts",
      "openingDate": "15 avril",
      "region": "Montérégie",
      "coordinates": {
        "lat": 45.2473927,
        "lng": -73.3031727
      },
      "url": null,
      "scrapedAt": "2026-05-02T18:35:44.903Z"
    },
    {
      "id": "e96e55e830c9",
      "name": "Golf Milby",
      "openingDate": "16 avril",
      "region": "Cantons-de-l’Est",
      "coordinates": {
        "lat": 46.8139,
        "lng": -71.208
      },
      "url": null,
      "scrapedAt": "2026-05-02T18:35:44.845Z"
    },
    {
      "id": "25c65688e53d",
      "name": "Golf de Farnham",
      "openingDate": "17 avril",
      "region": "Cantons-de-l’Est",
      "coordinates": {
        "lat": 46.8139,
        "lng": -71.208
      },
      "url": null,
      "scrapedAt": "2026-05-02T18:35:44.844Z"
    },
    {
      "id": "d1c4033fdcce",
      "name": "Golf Royal Bromont",
      "openingDate": "17 avril",
      "region": "Cantons-de-l’Est",
      "coordinates": {
        "lat": 46.8139,
        "lng": -71.208
      },
      "url": null,
      "scrapedAt": "2026-05-02T18:35:44.847Z"
    },
    {
      "id": "1916352fd289",
      "name": "Golf Waterloo",
      "openingDate": "17 avril",
      "region": "Cantons-de-l’Est",
      "coordinates": {
        "lat": 46.8139,
        "lng": -71.208
      },
      "url": null,
      "scrapedAt": "2026-05-02T18:35:44.848Z"
    },
    {
      "id": "7d846b9752e2",
      "name": "Golf Waterville",
      "openingDate": "17 avril",
      "region": "Cantons-de-l’Est",
      "coordinates": {
        "lat": 46.8139,
        "lng": -71.208
      },
      "url": null,
      "scrapedAt": "2026-05-02T18:35:44.849Z"
    },
    {
      "id": "ae9085485673",
      "name": "Golf l’Albatros",
      "openingDate": "17 avril",
      "region": "Capitale-Nationale",
      "coordinates": {
        "lat": 47.4484748,
        "lng": -70.5331524
      },
      "url": null,
      "scrapedAt": "2026-05-02T18:35:44.849Z"
    },
    {
      "id": "ca6d45f964c7",
      "name": "Golf Bois-Francs",
      "openingDate": "17 avril",
      "region": "Centre-du-Québec",
      "coordinates": {
        "lat": 46.2185453,
        "lng": -71.9357028
      },
      "url": null,
      "scrapedAt": "2026-05-02T18:35:44.853Z"
    },
    {
      "id": "10b1bb66c849",
      "name": "Golf Hériot",
      "openingDate": "17 avril",
      "region": "Centre-du-Québec",
      "coordinates": {
        "lat": 45.8014945,
        "lng": -72.4468029
      },
      "url": null,
      "scrapedAt": "2026-05-02T18:35:44.854Z"
    },
    {
      "id": "a74e6ea0aff9",
      "name": "Golf Beauceville",
      "openingDate": "17 avril",
      "region": "Chaudière-Appalaches",
      "coordinates": {
        "lat": 46.2625115,
        "lng": -70.7627795
      },
      "url": null,
      "scrapedAt": "2026-05-02T18:35:44.856Z"
    },
    {
      "id": "b0f7490c13bf",
      "name": "Golf Les Boisés de Joly",
      "openingDate": "17 avril",
      "region": "Chaudière-Appalaches",
      "coordinates": {
        "lat": 46.478596,
        "lng": -71.6609864
      },
      "url": null,
      "scrapedAt": "2026-05-02T18:35:44.856Z"
    },
    {
      "id": "1ef6eeae53c4",
      "name": "Golf Base de Roc",
      "openingDate": "17 avril",
      "region": "Lanaudière",
      "coordinates": {
        "lat": 45.9903366,
        "lng": -73.3929869
      },
      "url": null,
      "scrapedAt": "2026-05-02T18:35:44.859Z"
    },
    {
      "id": "c26510124df0",
      "name": "Golf Arundel",
      "openingDate": "17 avril",
      "region": "Laurentides",
      "coordinates": {
        "lat": 45.9798555,
        "lng": -74.6210321
      },
      "url": null,
      "scrapedAt": "2026-05-02T18:35:44.882Z"
    },
    {
      "id": "a73269de4353",
      "name": "Golf Beloeil",
      "openingDate": "17 avril",
      "region": "Montérégie",
      "coordinates": {
        "lat": 45.5630879,
        "lng": -73.2158869
      },
      "url": null,
      "scrapedAt": "2026-05-02T18:35:44.891Z"
    },
    {
      "id": "5fc1303e8ef6",
      "name": "Golf Parcours du Cerf",
      "openingDate": "17 avril",
      "region": "Montérégie",
      "coordinates": {
        "lat": 45.5333,
        "lng": -73.5167
      },
      "url": null,
      "scrapedAt": "2026-05-02T18:35:44.899Z"
    },
    {
      "id": "5cfcea12636f",
      "name": "Golf Champlain",
      "openingDate": "17 avril",
      "region": "Outaouais",
      "coordinates": {
        "lat": 45.4150124,
        "lng": -75.7809228
      },
      "url": null,
      "scrapedAt": "2026-05-02T18:35:44.907Z"
    },
    {
      "id": "29a623e6189f",
      "name": "Golf Beaurivage",
      "openingDate": "18 avril",
      "region": "Chaudière-Appalaches",
      "coordinates": {
        "lat": 46.4833,
        "lng": -70.9167
      },
      "url": null,
      "scrapedAt": "2026-05-02T18:35:44.856Z"
    },
    {
      "id": "baf728d74532",
      "name": "Golf des Patriotes",
      "openingDate": "18 avril",
      "region": "Montérégie",
      "coordinates": {
        "lat": 45.9445259,
        "lng": -73.1383012
      },
      "url": null,
      "scrapedAt": "2026-05-02T18:35:44.892Z"
    },
    {
      "id": "68773bc2890f",
      "name": "Golf Ormstown",
      "openingDate": "18 avril",
      "region": "Montérégie",
      "coordinates": {
        "lat": 45.0568576,
        "lng": -73.983438
      },
      "url": null,
      "scrapedAt": "2026-05-02T18:35:44.899Z"
    },
    {
      "id": "923972e52b02",
      "name": "Golf St-Césaire",
      "openingDate": "18 avril",
      "region": "Montérégie",
      "coordinates": {
        "lat": 45.3915552,
        "lng": -73.0411171
      },
      "url": null,
      "scrapedAt": "2026-05-02T18:35:44.902Z"
    },
    {
      "id": "d49abccc31cb",
      "name": "Casselview Golf Club",
      "openingDate": "18 avril",
      "region": "Ontario-Est",
      "coordinates": {
        "lat": 46.8139,
        "lng": -71.208
      },
      "url": null,
      "scrapedAt": "2026-05-02T18:35:44.910Z"
    },
    {
      "id": "c12a7ba74980",
      "name": "Golf Rawdon",
      "openingDate": "22 avril",
      "region": "Lanaudière",
      "coordinates": {
        "lat": 46.057838,
        "lng": -73.7002364
      },
      "url": null,
      "scrapedAt": "2026-05-02T18:35:44.881Z"
    },
    {
      "id": "6afeff5578cb",
      "name": "Golf St-Anicet",
      "openingDate": "22 avril",
      "region": "Montérégie",
      "coordinates": {
        "lat": 45.1595736,
        "lng": -74.2933711
      },
      "url": null,
      "scrapedAt": "2026-05-02T18:35:44.901Z"
    },
    {
      "id": "70d2349708a4",
      "name": "Golf Manoir des Sables",
      "openingDate": "23 avril",
      "region": "Cantons-de-l’Est",
      "coordinates": {
        "lat": 46.8139,
        "lng": -71.208
      },
      "url": null,
      "scrapedAt": "2026-05-02T18:35:44.845Z"
    },
    {
      "id": "344aadfece65",
      "name": "Golf de Sherbrooke",
      "openingDate": "23 avril",
      "region": "Cantons-de-l’Est",
      "coordinates": {
        "lat": 46.8139,
        "lng": -71.208
      },
      "url": null,
      "scrapedAt": "2026-05-02T18:35:44.848Z"
    },
    {
      "id": "2484d0056f22",
      "name": "Golf Beauport",
      "openingDate": "23 avril",
      "region": "Capitale-Nationale",
      "coordinates": {
        "lat": 46.8695027,
        "lng": -71.2147802
      },
      "url": null,
      "scrapedAt": "2026-05-02T18:35:44.850Z"
    },
    {
      "id": "36d40f70e454",
      "name": "Golf Métropolitain",
      "openingDate": "23 avril",
      "region": "Capitale-Nationale",
      "coordinates": {
        "lat": 46.8244131,
        "lng": -71.3740499
      },
      "url": null,
      "scrapedAt": "2026-05-02T18:35:44.851Z"
    },
    {
      "id": "fc7f8e121e2b",
      "name": "Golf Le Rocher Roxton Pond",
      "openingDate": "24 avril",
      "region": "Cantons-de-l’Est",
      "coordinates": {
        "lat": 46.8139,
        "lng": -71.208
      },
      "url": null,
      "scrapedAt": "2026-05-02T18:35:44.846Z"
    },
    {
      "id": "35cc2ed6d05a",
      "name": "Golf Val-des-Sources (Asbestos)",
      "openingDate": "24 avril",
      "region": "Cantons-de-l’Est",
      "coordinates": {
        "lat": 46.8139,
        "lng": -71.208
      },
      "url": null,
      "scrapedAt": "2026-05-02T18:35:44.848Z"
    },
    {
      "id": "5e36d1806638",
      "name": "Golf Royal Charbourg",
      "openingDate": "24 avril",
      "region": "Capitale-Nationale",
      "coordinates": {
        "lat": 46.9269402,
        "lng": -71.3645119
      },
      "url": null,
      "scrapedAt": "2026-05-02T18:35:44.852Z"
    },
    {
      "id": "5555c1915c85",
      "name": "Golf l’Auberivière",
      "openingDate": "24 avril",
      "region": "Chaudière-Appalaches",
      "coordinates": {
        "lat": 46.7638985,
        "lng": -71.1846012
      },
      "url": null,
      "scrapedAt": "2026-05-02T18:35:44.855Z"
    },
    {
      "id": "ba1d18930255",
      "name": "Golf St-Étienne",
      "openingDate": "24 avril",
      "region": "Chaudière-Appalaches",
      "coordinates": {
        "lat": 46.587418,
        "lng": -71.3638936
      },
      "url": null,
      "scrapedAt": "2026-05-02T18:35:44.858Z"
    },
    {
      "id": "c67fbb4b8ef0",
      "name": "Golf St-Georges",
      "openingDate": "24 avril",
      "region": "Chaudière-Appalaches",
      "coordinates": {
        "lat": 46.1931809,
        "lng": -70.6115458
      },
      "url": null,
      "scrapedAt": "2026-05-02T18:35:44.858Z"
    },
    {
      "id": "89630c20fdc7",
      "name": "Golf Thetford Mines",
      "openingDate": "24 avril",
      "region": "Chaudière-Appalaches",
      "coordinates": {
        "lat": 46.0851076,
        "lng": -71.2831553
      },
      "url": null,
      "scrapedAt": "2026-05-02T18:35:44.858Z"
    },
    {
      "id": "568c7beb8cdd",
      "name": "Golf L’Épiphanie",
      "openingDate": "24 avril",
      "region": "Lanaudière",
      "coordinates": {
        "lat": 45.8617786,
        "lng": -73.4986574
      },
      "url": null,
      "scrapedAt": "2026-05-02T18:35:44.860Z"
    },
    {
      "id": "8444fdd1f671",
      "name": "Golf Atlantide",
      "openingDate": "24 avril",
      "region": "Montérégie",
      "coordinates": {
        "lat": 45.3660895,
        "lng": -73.8676011
      },
      "url": null,
      "scrapedAt": "2026-05-02T18:35:44.891Z"
    },
    {
      "id": "02b3628167d7",
      "name": "Golf Cowansville",
      "openingDate": "24 avril",
      "region": "Montérégie",
      "coordinates": {
        "lat": 45.5333,
        "lng": -73.5167
      },
      "url": null,
      "scrapedAt": "2026-05-02T18:35:44.892Z"
    },
    {
      "id": "cca1cae8681d",
      "name": "Golf Rivière Rouge",
      "openingDate": "24 avril",
      "region": "Montérégie",
      "coordinates": {
        "lat": 45.3136416,
        "lng": -74.2009244
      },
      "url": null,
      "scrapedAt": "2026-05-02T18:35:44.900Z"
    },
    {
      "id": "70d767458932",
      "name": "Golf Rougemont",
      "openingDate": "24 avril",
      "region": "Montérégie",
      "coordinates": {
        "lat": 45.4363509,
        "lng": -73.0922144
      },
      "url": null,
      "scrapedAt": "2026-05-02T18:35:44.901Z"
    },
    {
      "id": "694247c6564a",
      "name": "Golf Dorval",
      "openingDate": "24 avril",
      "region": "Montréal",
      "coordinates": {
        "lat": 45.4724569,
        "lng": -73.7721022
      },
      "url": null,
      "scrapedAt": "2026-05-02T18:35:44.904Z"
    },
    {
      "id": "bb328a3d9032",
      "name": "Golf de l’Île de Montréal",
      "openingDate": "24 avril",
      "region": "Montréal",
      "coordinates": {
        "lat": 45.6828114,
        "lng": -73.5206964
      },
      "url": null,
      "scrapedAt": "2026-05-02T18:35:44.905Z"
    },
    {
      "id": "51a745a28d8f",
      "name": "Golf Lac-Etchemin",
      "openingDate": "25 avril",
      "region": "Chaudière-Appalaches",
      "coordinates": {
        "lat": 46.4327723,
        "lng": -70.5034769
      },
      "url": null,
      "scrapedAt": "2026-05-02T18:35:44.856Z"
    },
    {
      "id": "8d77742322e3",
      "name": "Golf Lotbinière",
      "openingDate": "25 avril",
      "region": "Chaudière-Appalaches",
      "coordinates": {
        "lat": 46.587418,
        "lng": -71.3638936
      },
      "url": null,
      "scrapedAt": "2026-05-02T18:35:44.857Z"
    },
    {
      "id": "c6293e678e1a",
      "name": "Golf Trois-Saumons",
      "openingDate": "25 avril",
      "region": "Chaudière-Appalaches",
      "coordinates": {
        "lat": 47.156504,
        "lng": -70.2953085
      },
      "url": null,
      "scrapedAt": "2026-05-02T18:35:44.858Z"
    },
    {
      "id": "c49f3ddc091e",
      "name": "Golf Bel-Air",
      "openingDate": "25 avril",
      "region": "Laurentides",
      "coordinates": {
        "lat": 45.6176,
        "lng": -74.0627424
      },
      "url": null,
      "scrapedAt": "2026-05-02T18:35:44.883Z"
    },
    {
      "id": "b16496124704",
      "name": "Golf Métabéroutin",
      "openingDate": "25 avril",
      "region": "Mauricie",
      "coordinates": {
        "lat": 46.361648,
        "lng": -72.5365504
      },
      "url": null,
      "scrapedAt": "2026-05-02T18:35:44.890Z"
    },
    {
      "id": "2738b219c1d3",
      "name": "Golf La Madeleine",
      "openingDate": "25 avril",
      "region": "Montérégie",
      "coordinates": {
        "lat": 45.6074273,
        "lng": -73.1274605
      },
      "url": null,
      "scrapedAt": "2026-05-02T18:35:44.896Z"
    },
    {
      "id": "123124bf0cdf",
      "name": "Golf îles de Boucherville",
      "openingDate": "25 avril",
      "region": "Montréal",
      "coordinates": {
        "lat": 45.5017,
        "lng": -73.5673
      },
      "url": null,
      "scrapedAt": "2026-05-02T18:35:44.905Z"
    },
    {
      "id": "a35ef9393028",
      "name": "Golf Algonquin",
      "openingDate": "25 avril",
      "region": "Outaouais",
      "coordinates": {
        "lat": 46.2718721,
        "lng": -76.0073996
      },
      "url": null,
      "scrapedAt": "2026-05-02T18:35:44.906Z"
    },
    {
      "id": "a95399a74404",
      "name": "Golf Mont Cascades",
      "openingDate": "25 avril",
      "region": "Outaouais",
      "coordinates": {
        "lat": 45.4215,
        "lng": -75.6972
      },
      "url": null,
      "scrapedAt": "2026-05-02T18:35:44.908Z"
    },
    {
      "id": "73421d07c28f",
      "name": "Golf Lorraine",
      "openingDate": "28 avril",
      "region": "Laurentides",
      "coordinates": {
        "lat": 45.6603672,
        "lng": -73.7808546
      },
      "url": null,
      "scrapedAt": "2026-05-02T18:35:44.885Z"
    },
    {
      "id": "170534103eaa",
      "name": "Golf de Terrebonne",
      "openingDate": "29 avril",
      "region": "Lanaudière",
      "coordinates": {
        "lat": 45.6883818,
        "lng": -73.7063878
      },
      "url": null,
      "scrapedAt": "2026-05-02T18:35:44.882Z"
    },
    {
      "id": "6dd616c01ad6",
      "name": "Golf Hemmingford",
      "openingDate": "29 avril",
      "region": "Montérégie",
      "coordinates": {
        "lat": 45.5333,
        "lng": -73.5167
      },
      "url": null,
      "scrapedAt": "2026-05-02T18:35:44.893Z"
    },
    {
      "id": "7bb21d499520",
      "name": "Golf St-Lambert",
      "openingDate": "29 avril",
      "region": "Montérégie",
      "coordinates": {
        "lat": 45.5038071,
        "lng": -73.5024894
      },
      "url": null,
      "scrapedAt": "2026-05-02T18:35:44.902Z"
    },
    {
      "id": "f598f0aa024a",
      "name": "Golf Owl’s Head",
      "openingDate": "30 avril",
      "region": "Cantons-de-l’Est",
      "coordinates": {
        "lat": 46.8139,
        "lng": -71.208
      },
      "url": null,
      "scrapedAt": "2026-05-02T18:35:44.846Z"
    },
    {
      "id": "9212ec147c88",
      "name": "Golf Bellechasse",
      "openingDate": "30 avril",
      "region": "Chaudière-Appalaches",
      "coordinates": {
        "lat": 46.6214856,
        "lng": -70.7000373
      },
      "url": null,
      "scrapedAt": "2026-05-02T18:35:44.856Z"
    },
    {
      "id": "01cd7541be4a",
      "name": "Golf Joliette",
      "openingDate": "30 avril",
      "region": "Lanaudière",
      "coordinates": {
        "lat": 46.0508126,
        "lng": -73.448663
      },
      "url": null,
      "scrapedAt": "2026-05-02T18:35:44.860Z"
    },
    {
      "id": "621544d5301c",
      "name": "Golf Le Sorcier",
      "openingDate": "30 avril",
      "region": "Outaouais",
      "coordinates": {
        "lat": 45.5520314,
        "lng": -75.5965137
      },
      "url": null,
      "scrapedAt": "2026-05-02T18:35:44.908Z"
    },
    {
      "id": "14484e349eff",
      "name": "Eagle Creek Golf Club",
      "openingDate": "30 avril",
      "region": "Ontario-Est",
      "coordinates": {
        "lat": 46.8139,
        "lng": -71.208
      },
      "url": null,
      "scrapedAt": "2026-05-02T18:35:44.910Z"
    },
    {
      "id": "72c7a5702750",
      "name": "Greyhawk Golf Club (Cumberland)",
      "openingDate": "30 avril",
      "region": "Ontario-Est",
      "coordinates": {
        "lat": 46.8139,
        "lng": -71.208
      },
      "url": null,
      "scrapedAt": "2026-05-02T18:35:44.911Z"
    },
    {
      "id": "8d6e67ad3d33",
      "name": "Golf St-Raphaël",
      "openingDate": "4 mai",
      "region": "Montréal",
      "coordinates": {
        "lat": 45.5054396,
        "lng": -73.8975455
      },
      "url": null,
      "scrapedAt": "2026-05-02T18:35:44.905Z"
    },
    {
      "id": "ca85e303c326",
      "name": "Golf Mirabel",
      "openingDate": "5 mai",
      "region": "Laurentides",
      "coordinates": {
        "lat": 45.7155755,
        "lng": -73.9003943
      },
      "url": null,
      "scrapedAt": "2026-05-02T18:35:44.885Z"
    },
    {
      "id": "6072c1043e83",
      "name": "Golf Matha ( St-Jean-de-Matha (Matha)",
      "openingDate": "7 mai",
      "region": "Lanaudière",
      "coordinates": {
        "lat": 46.2919666,
        "lng": -73.5703135
      },
      "url": null,
      "scrapedAt": "2026-05-02T18:35:44.882Z"
    },
    {
      "id": "1e61a8632359",
      "name": "Golf St-Jean",
      "openingDate": "7 mai",
      "region": "Montérégie",
      "coordinates": {
        "lat": 45.2810041,
        "lng": -73.2561517
      },
      "url": null,
      "scrapedAt": "2026-05-02T18:35:44.902Z"
    },
    {
      "id": "081dbfdd0ac4",
      "name": "Golf Le Diable",
      "openingDate": "8 mai",
      "region": "Laurentides",
      "coordinates": {
        "lat": 46.1812055,
        "lng": -74.5945937
      },
      "url": null,
      "scrapedAt": "2026-05-02T18:35:44.883Z"
    },
    {
      "id": "d8aa65b587ec",
      "name": "Golf Mont Adstock",
      "openingDate": "9 mai",
      "region": "Chaudière-Appalaches",
      "coordinates": {
        "lat": 46.4833,
        "lng": -70.9167
      },
      "url": null,
      "scrapedAt": "2026-05-02T18:35:44.857Z"
    },
    {
      "id": "a920af3c99a6",
      "name": "Golf Le Géant",
      "openingDate": "5 juin",
      "region": "Laurentides",
      "coordinates": {
        "lat": 46.1964108,
        "lng": -74.5880038
      },
      "url": null,
      "scrapedAt": "2026-05-02T18:35:44.884Z"
    }
  ]
}